[
    {
        "name": "拉麵公子",
        "id": "TheRamenBoy",
        "address": "104台北市中山區八德路二段279號",
        "coordinates": [ 25.047258382317295, 121.5420430489661 ]
    },
    {
        "name": "柑橘Shinn - 鴨蔥",
        "id": "sobashinncitrus",
        "address": "110台北市信義區嘉興街315號",
        "coordinates": [ 25.023342579147002, 121.55481867326591 ]
    },
    {
        "name": "海貓亭拉麵 うみねこ亭",
        "id": "uminekotei",
        "address": "231新北市新店區新店路27號",
        "coordinates": [ 24.952863031253244, 121.54007969738244 ]
    },
    {
        "name": "Hiro's らぁ麵Kitchen 新店店",
        "id": "hirosraamenKitchen",
        "address": "231新北市新店區文化路5號1樓",
        "coordinates": [ 24.979577715313624, 121.54303036060662 ]
    },
    {
        "name": "神樂岡旭川拉麵",
        "id": "AsahikawaRamen",
        "address": "200基隆市仁愛區仁二路211號",
        "coordinates": [ 25.129035571466968, 121.74487895276425 ]
    },
    {
        "name": "三冬麵舖",
        "id": "SanDongMianPu",
        "address": "330桃園市桃園區同德十街17號",
        "coordinates": [ 25.018721393565936, 121.29493513925239 ]
    },
    {
        "name": "均晣溫度",
        "id": "JyunJheWunDu",
        "address": "358苗栗縣苑裡鎮新興路48號",
        "coordinates": [ 24.440732218999013, 120.6529951312599 ]
    },
    {
        "name": "山下公園 ラーメン",
        "id": "yamashita-ramen",
        "address": "403台中市西區健行路1049號金典綠園道商場三樓",
        "coordinates": [ 24.15605124421572, 120.66347557413171 ]
    },
    {
        "name": "有囍拉麵中山店",
        "id": "yoshiramentaichung",
        "address": "400台中市中區中山路82號",
        "coordinates": [ 24.139355606623223, 120.68229018153495 ]
    },
    {
        "name": "長生塩人-員林",
        "id": "thesaltramen2",
        "address": "51041彰化縣員林市中山路一段798號",
        "coordinates": [ 23.958125051558802, 120.57149062572527 ]
    },
    {
        "name": "麵屋柴",
        "id": "menyashiba",
        "address": "63242雲林縣虎尾鄉仁愛路61號",
        "coordinates": [ 23.709019786567854, 120.43452675135309 ]
    },
    {
        "name": "圓拉麵",
        "id": "OLM11",
        "address": "640雲林縣斗六市九如街4號",
        "coordinates": [ 23.70589798366214, 120.53864805415137 ]
    },
    {
        "name": "埔里 橫濱拉麵",
        "id": "PuLiYokohamaRamen",
        "address": "545南投縣埔里鎮東華路95-1號",
        "coordinates": [ 23.964748424164654, 120.9711456717692 ]
    },
    {
        "name": "山越拉麵",
        "id": "Yamakoshi",
        "address": "600嘉義市東區中正路349號",
        "coordinates": [ 23.478984771454677, 120.45102896617833 ]
    },
    {
        "name": "麺や青鈴",
        "id": "menyaseirei",
        "address": "71081台南市永康區新行街33巷1號",
        "coordinates": [ 23.039265715381653, 120.24162899391004 ]
    },
    {
        "name": "淳鳩一夫拉麵",
        "id": "ChunJiouYiFu",
        "address": "700台南市中西區民權路二段218號",
        "coordinates": [ 22.995681047622895, 120.20193037172737 ]
    },
    {
        "name": "中村製麵",
        "id": "nakamura",
        "address": "802高雄市苓雅區成功一路231號",
        "coordinates": [ 22.618473454456964, 120.29675146008779 ]
    },
    {
        "name": "Ramen初ui拉麵",
        "id": "ramenui2016",
        "address": "830高雄市鳳山區五權南路226號",
        "coordinates": [ 22.625594929017783, 120.35411522386246 ]
    },
    {
        "name": "拉麵山田",
        "id": "yamada",
        "address": "912屏東縣內埔鄉崇聖路4號912",
        "coordinates": [ 22.612765359366595, 120.56863061118747 ]
    },
    {
        "name": "哈拉麵",
        "id": "HotRamen",
        "address": "950台東縣台東市福建路285號950",
        "coordinates": [ 22.751017786953476, 121.15235831372918 ]
    },
    {
        "name": "黑潮拉麵·炸串專賣店",
        "id": "kuroshio",
        "address": "970花蓮縣花蓮市復興街71號970",
        "coordinates": [ 23.98189202710064, 121.6073713312638 ]
    },
    {
        "name": "麵魂家",
        "id": "menkonya",
        "address": "265宜蘭縣羅東鎮南門路158號",
        "coordinates": [ 24.673125273630685, 121.76501173546572 ]
    }
]